[
  {
    "name":"suvarna",
    "mobile":8108756055,
    "email":"satvikent2019@gmail.com",
    "area":"Kandivali",
    "city":"Mumbai",
    "pincode":400101,
    "latitude":19.200247,
    "longitude":72.866027
  },
  {
    "name":"heena kausar",
    "mobile":9724376858,
    "email":"hinakousar39@gmail.com",
    "area":"amber toer sarkhej road",
    "city":"Ahmedabad",
    "pincode":560037,
    "latitude":22.979052,
    "longitude":72.509696
  },
  {
    "name":"vallepu lavanya",
    "mobile":9502173438,
    "email":"vallapu.lavanya05@gmail.com",
    "area":"bollarum",
    "city":"Hyderabad",
    "pincode":500010,
    "latitude":17.527495,
    "longitude":78.539147
  },
  {
    "name":"veenu kumari",
    "mobile":8125674978,
    "email":"veenukumar1321@gmail.com",
    "area":"secunderabad",
    "city":"Hyderabad",
    "pincode":500047,
    "latitude":17.453429,
    "longitude":78.52674
  },
  {
    "name":"Hajera firdous [9 am to 3 pm]",
    "mobile":7995951110,
    "email":"hajerafirdous424@gmail.com",
    "area":"Attapur",
    "city":"Hyderabad",
    "pincode":500030,
    "latitude":9246177770,
    "longitude":78.418756
  },
  {
    "name":"sophia",
    "mobile":9538710105,
    "email":"sophiaedward246@gmail.com",
    "area":"kammgondahali",
    "city":"Bangalore",
    "pincode":560015,
    "latitude":13.077261,
    "longitude":77.500115
  },
  {
    "name":"Yasmin Sayyed",
    "mobile":8779420244,
    "email":"liotig100@gmail.com",
    "area":"Mumbra, Dist.",
    "city":"Mumbai",
    "pincode":400612,
    "latitude":19.17444721,
    "longitude":73.0214081
  },
  {
    "name":"Ankita pandya [she will go gandhinagar]",
    "mobile":9998432359,
    "email":"ankitapandya1812@gmail.com",
    "area":"chankheda",
    "city":"Ahmedabad",
    "pincode":382424,
    "latitude":23.115071,
    "longitude":72.586421
  },
  {
    "name":"naziya [9 to 6 ]",
    "mobile":9000744125,
    "email":"khadeerunnisa018@gmail.com",
    "area":"macha bolarm",
    "city":"Hyderabad",
    "pincode":500010,
    "latitude":17.520081,
    "longitude":78.511093
  },
  {
    "name":"Malika Begam [she will go 30 km ] 10am 3pm]",
    "mobile":8179385677,
    "email":"afeefatara2618@gmail.com",
    "area":"Suleiman nagar",
    "city":"Hyderabad",
    "pincode":500052,
    "latitude":17.346823,
    "longitude":78.422813
  },
  {
    "name":"Shamina memon 9 am to 3 pm",
    "mobile":9160470108,
    "email":"shaminamemon1989@gmail.com",
    "area":"mushirabad",
    "city":"Hyderabad",
    "pincode":500064,
    "latitude":17.345111,
    "longitude":78.449897
  },
  {
    "name":"komal jaiswal",
    "mobile":7021031835,
    "email":"Komaljaiswal5566@gmali.com",
    "area":"santacruz east",
    "city":"Mumbai",
    "pincode":400055,
    "latitude":19.076502,
    "longitude":72.844557
  },
  {
    "name":"Asma attar",
    "mobile":9702647977,
    "email":"aasmaattar1979@gmail.com",
    "area":"kalyan",
    "city":"Mumbai",
    "pincode":421306,
    "latitude":19.23107,
    "longitude":73.115491
  },
  {
    "name":"kirti kumar",
    "mobile":9769240966,
    "email":"kirti1805b@gmail.com",
    "area":"bhayander",
    "city":"Mumbai",
    "pincode":401101,
    "latitude":19.304717,
    "longitude":72.849762
  },
  {
    "name":"Neelofar khan",
    "mobile":7715987176,
    "email":"neelofark521@gmail.com",
    "area":"govandi",
    "city":"Mumbai",
    "pincode":400043,
    "latitude":19.052504,
    "longitude":72.926394
  },
  {
    "name":"Shiwali sarmalkar",
    "mobile":7378959990,
    "email":"shiwalisarmlakr@gmail.com",
    "area":"dombiwali, east",
    "city":"Mumbai",
    "pincode":421202,
    "latitude":19.206949,
    "longitude":73.100104
  },
  {
    "name":"khy",
    "mobile":7248975979,
    "email":"rakhisolanki2728@gmail.com",
    "area":"Ambernath",
    "city":"Mumbai",
    "pincode":421501,
    "latitude":19.212164,
    "longitude":73.200213
  },
  {
    "name":"Varsha Kumar",
    "mobile":9133049170,
    "email":"varshakumar971@gmail.com",
    "area":"ECIL",
    "city":"Hyderabad",
    "pincode":500056,
    "latitude":17.475244,
    "longitude":78.546075
  },
  {
    "name":"Radhika Suthar [ vasai to miraroad ]",
    "mobile":8600320967,
    "email":"radhikasuthar1517@gmail.com",
    "area":"vasai",
    "city":"Mumbai",
    "pincode":401202,
    "latitude":19.369335,
    "longitude":72.831494
  },
  {
    "name":"Liza shaikh [she will work after 10 mrc]",
    "mobile":9082544520,
    "email":"Lizashaikh604 gmail.com",
    "area":"mumrah",
    "city":"Mumbai",
    "pincode":400612,
    "latitude":19.183282,
    "longitude":73.021881
  },
  {
    "name":"Shital Mhalunge",
    "mobile":9820180056,
    "email":"Shital.mhalunge1234@gmail.com",
    "area":"ghatkoapr",
    "city":"Mumbai",
    "pincode":400086,
    "latitude":18.955715,
    "longitude":72.828923
  },
  {
    "name":"Savita Gaikwad",
    "mobile":9137996951,
    "email":"gaikwadsavita145@gmail,com",
    "area":"Kalyan\u00a0West",
    "city":"Mumbai",
    "pincode":421301,
    "latitude":19.257809,
    "longitude":73.132378
  },
  {
    "name":"Zeba fatima [9 am to 4 pm]",
    "mobile":9676469411,
    "email":"khanzebakhan786@gmail.com",
    "area":"Tolichowki Hakimpet",
    "city":"Hyderabad",
    "pincode":500008,
    "latitude":17.407212,
    "longitude":17.407212
  },
  {
    "name":"Sarita gupta",
    "mobile":9594181063,
    "email":"guptasarita256@gmail.com",
    "area":"virar",
    "city":"Mumbai",
    "pincode":401305,
    "latitude":19.477478,
    "longitude":72.853923
  },
  {
    "name":"Sarita gupta",
    "mobile":9594181063,
    "email":"guptasarita526@gmail.com",
    "area":"virar",
    "city":"Mumbai",
    "pincode":401305,
    "latitude":19.477478,
    "longitude":72.853923
  },
  {
    "name":"Swatika Patil",
    "mobile":7028726831,
    "email":"- swatika.patil09@gmail.com",
    "area":"Ravet",
    "city":"Pune",
    "pincode":411033,
    "latitude":18.642263,
    "longitude":73.755943
  },
  {
    "name":"kashmiri ghule",
    "mobile":7039835519,
    "email":"kashmirighule@gmail.com",
    "area":"kalyan",
    "city":"Mumbai",
    "pincode":421301,
    "latitude":23.011629,
    "longitude":72.648259
  },
  {
    "name":"Teja ghavre",
    "mobile":9545372729,
    "email":"jadhavteja@1996gmail.com",
    "area":"Neral,matheran",
    "city":"Mumbai",
    "pincode":410101,
    "latitude":18.989363,
    "longitude":73.271477
  },
  {
    "name":"Monika Patel [bridal]",
    "mobile":9974551867,
    "email":"shreejimakeoverstudio03@gmail.com",
    "area":"Nikol",
    "city":"Ahmedabad",
    "pincode":382350,
    "latitude":23.06248942,
    "longitude":72.66972316
  },
  {
    "name":"shahnaz begum",
    "mobile":9160067251,
    "email":"shainaazbegum343@gmail.com",
    "area":"yusufguda",
    "city":"Hyderabad",
    "pincode":500018,
    "latitude":17.44843,
    "longitude":78.420523
  },
  {
    "name":"pinky Rana",
    "mobile":8735855168,
    "email":"pinkyrana4108@gmail.com",
    "area":"motera",
    "city":"Ahmedabad",
    "pincode":380005,
    "latitude":23.098476,
    "longitude":72.596246
  },
  {
    "name":"Jenab Chouhan",
    "mobile":9664330423,
    "email":null,
    "area":"Juhapura",
    "city":"Ahmedabad",
    "pincode":380055,
    "latitude":22.97978,
    "longitude":72.513333
  },
  {
    "name":"Asharani v",
    "mobile":9353684708,
    "email":"asharani96866@gmail.com",
    "area":"Devinagar\u00a0",
    "city":"Bangalore",
    "pincode":560094,
    "latitude":13.050192,
    "longitude":77.571958
  },
  {
    "name":"Heer Bhuta",
    "mobile":9029570751,
    "email":"heerbhuta1988@gmail.com",
    "area":"borivali",
    "city":"Mumbai",
    "pincode":400092,
    "latitude":19.222555,
    "longitude":72.846089
  },
  {
    "name":"Zenath begum",
    "mobile":9538421216,
    "email":"zenabegum21216@gmail.com",
    "area":"Yeshwantpur",
    "city":"Bangalore",
    "pincode":560022,
    "latitude":13.023018,
    "longitude":77.557686
  },
  {
    "name":"shahnaz sayed",
    "mobile":7793968436,
    "email":"shainazshaik23@gmail.com",
    "area":"kukatpally",
    "city":"Hyderabad",
    "pincode":500072,
    "latitude":17.512752,
    "longitude":78.409523
  },
  {
    "name":"Saiba khan",
    "mobile":7208801736,
    "email":"saidabanokhan6605@gmail.com",
    "area":"sakinaka",
    "city":"Mumbai",
    "pincode":400072,
    "latitude":19.065856,
    "longitude":72.889037
  },
  {
    "name":"meena wakode",
    "mobile":8898728385,
    "email":"Meenavakode49@gmail.com",
    "area":"ghatkoapr",
    "city":"Mumbai",
    "pincode":400075,
    "latitude":19.086684,
    "longitude":72.917201
  },
  {
    "name":"Fatima jabeen",
    "mobile":7075548701,
    "email":"fatimajabeen1204@gmail.com",
    "area":"l b nagar",
    "city":"Hyderabad",
    "pincode":500074,
    "latitude":17.358659,
    "longitude":78.554002
  },
  {
    "name":"heena sharma",
    "mobile":9833979336,
    "email":"Heenu983397@gmail.com",
    "area":"Mulund",
    "city":"Mumbai",
    "pincode":400080,
    "latitude":19.1866,
    "longitude":73.046124
  },
  {
    "name":"drashti modi",
    "mobile":9752956127,
    "email":"damyantirathod26gmail. com",
    "area":"aanand",
    "city":"Ahmedabad",
    "pincode":388001,
    "latitude":22.552392,
    "longitude":72.939769
  },
  {
    "name":"megha gaikwad",
    "mobile":9890779865,
    "email":"meghagaikwad5949@gmail.com",
    "area":"Badlapur",
    "city":"Mumbai",
    "pincode":421503,
    "latitude":"19.160137,",
    "longitude":73.263367
  },
  {
    "name":"kyaama mamatha",
    "mobile":8096430045,
    "email":"kyamamamatha@gmail.com",
    "area":"hyderabad",
    "city":"Hyderabad",
    "pincode":500057,
    "latitude":17.511134,
    "longitude":78.430483
  },
  {
    "name":"shweta pandit kedar",
    "mobile":9152995890,
    "email":"shwetakedar10@gmail.com",
    "area":"chandivali mhada",
    "city":"Mumbai",
    "pincode":400072,
    "latitude":"9.111771,",
    "longitude":"9.111771,"
  },
  {
    "name":"fouziya shah",
    "mobile":8454834500,
    "email":"fauziyasha482@gmail.com",
    "area":"narayan nagar",
    "city":"Mumbai",
    "pincode":400086,
    "latitude":19.110441,
    "longitude":19.110441
  },
  {
    "name":"kareema medium",
    "mobile":8977770139,
    "email":"khhushii2025@gmail.com",
    "area":"tolichowki",
    "city":"Hyderabad",
    "pincode":500008,
    "latitude":"17.402908,",
    "longitude":"17.402908,"
  },
  {
    "name":"tejashree sachin",
    "mobile":9892626714,
    "email":"hatankartejashree@gmail.com",
    "area":"Andheri",
    "city":"Mumbai",
    "pincode":400069,
    "latitude":"19.121308,",
    "longitude":72.853865
  },
  {
    "name":"deepa yadav",
    "mobile":7738837946,
    "email":"dy0320060@gmail.com",
    "area":"taloja",
    "city":"Mumbai",
    "pincode":410206,
    "latitude":19.07947108,
    "longitude":73.08802889
  },
  {
    "name":"amrita dembla",
    "mobile":7820907385,
    "email":"amritadembla35@gmil.com",
    "area":"ulhasnagar",
    "city":"Mumbai",
    "pincode":421002,
    "latitude":"19.230159,",
    "longitude":73.159567
  },
  {
    "name":"sheeba mansuri",
    "mobile":8097138749,
    "email":"sheeba mansuri 004@g.mell.",
    "area":"mumbai",
    "city":"Mumbai",
    "pincode":400086,
    "latitude":"19.064928,",
    "longitude":72.892146
  },
  {
    "name":"Shalini gazi",
    "mobile":6362131978,
    "email":"shalini01111988@gmail",
    "area":"banglore",
    "city":"Bangalore",
    "pincode":560036,
    "latitude":"13.007708,",
    "longitude":77.715288
  },
  {
    "name":"reena sachin bankar",
    "mobile":9653437586,
    "email":"reenabankar50@gmail.com",
    "area":"orchid school -vikhroli",
    "city":"Mumbai",
    "pincode":400083,
    "latitude":19.120577,
    "longitude":19.120577
  },
  {
    "name":"umme sulaim",
    "mobile":8618073734,
    "email":"ummesuiaim1998@gmail.com",
    "area":"dubai layout",
    "city":"Bangalore",
    "pincode":560045,
    "latitude":13.016614,
    "longitude":77.610484
  },
  {
    "name":"ruijumani das ,massj wali",
    "mobile":8638605608,
    "email":"rijumani591das@gmail.com",
    "area":"electronic city",
    "city":"Bangalore",
    "pincode":560100,
    "latitude":12.870977,
    "longitude":12.870977
  },
  {
    "name":"ankita sargar",
    "mobile":8898627424,
    "email":"ankitasaragar@gmail.com",
    "area":"govandi",
    "city":"Mumbai",
    "pincode":400043,
    "latitude":19.065231,
    "longitude":72.916392
  },
  {
    "name":"kalpana solanki",
    "mobile":9833197330,
    "email":"solankikalpana946@gmail.com",
    "area":"Safale-Virar",
    "city":"Mumbai",
    "pincode":401102,
    "latitude":19.56736,
    "longitude":72.809769
  },
  {
    "name":"rupa kunchikorve",
    "mobile":8928782838,
    "email":"manerupa25@gmail.com",
    "area":"sion",
    "city":"Mumbai",
    "pincode":400022,
    "latitude":19.04580129,
    "longitude":72.86380625
  },
  {
    "name":"shilpa vdhvana",
    "mobile":8591034511,
    "email":"shilpajethwa434@gmail.com",
    "area":"kalwa west",
    "city":"Mumbai",
    "pincode":400605,
    "latitude":19.39354,
    "longitude":72.847082
  },
  {
    "name":"Chandni dulhani",
    "mobile":8329777980,
    "email":"jigarhero123@gmail.com",
    "area":"Ulhasnagar",
    "city":"Mumbai",
    "pincode":421001,
    "latitude":19.23943079,
    "longitude":73.16483626
  },
  {
    "name":"afreen moosa",
    "mobile":7039722168,
    "email":"afreenpinjari11@gmail.com",
    "area":"mumbai",
    "city":"Mumbai",
    "pincode":400612,
    "latitude":19.170236,
    "longitude":73.026839
  },
  {
    "name":"ujjwala kothari",
    "mobile":7016550223,
    "email":"tanuparab89@gmail.com",
    "area":"taloja",
    "city":"Mumbai",
    "pincode":410208,
    "latitude":19.06992,
    "longitude":19.06992
  },
  {
    "name":"reena sandeep kamble",
    "mobile":9152200615,
    "email":"bhusankamble35@gmail.com",
    "area":"andheri",
    "city":"Mumbai",
    "pincode":400058,
    "latitude":19.118935,
    "longitude":19.118935
  },
  {
    "name":"gausiya sayyed",
    "mobile":8080659776,
    "email":"lgoshiyesayyed.uc@gmail.com",
    "area":"olwe",
    "city":"Mumbai",
    "pincode":410206,
    "latitude":18.98244,
    "longitude":18.98244
  },
  {
    "name":"asha prabhakar shinde",
    "mobile":9867525313,
    "email":"ashashinde326@gmail.com",
    "area":"mumbai",
    "city":"Mumbai",
    "pincode":400017,
    "latitude":19.045029,
    "longitude":72.855097
  },
  {
    "name":"shwethasingh",
    "mobile":9704385827,
    "email":"shwethasingh27@gmail.com",
    "area":"rajendernagar",
    "city":"Hyderabad",
    "pincode":500077,
    "latitude":17.301831,
    "longitude":17.301831
  },
  {
    "name":"pramila nitees",
    "mobile":9987986897,
    "email":"prsamilasawale9@gmail.com",
    "area":"dombiwali, east",
    "city":"Mumbai",
    "pincode":421204,
    "latitude":"19.195446,",
    "longitude":73.101433
  },
  {
    "name":"mohini singh",
    "mobile":9930412847,
    "email":"mohinisingh75948@gmal.com",
    "area":"sion",
    "city":"Mumbai",
    "pincode":400022,
    "latitude":19.042814,
    "longitude":72.86425
  },
  {
    "name":"poonam deepak jangare",
    "mobile":9527366783,
    "email":"poonamjangare@gmail.com",
    "area":",ulhasnagar,thane",
    "city":"Mumbai",
    "pincode":421004,
    "latitude":19.218547,
    "longitude":73.158896
  },
  {
    "name":"parwati parwati",
    "mobile":8850220013,
    "email":"sivannnimer9987@gmail.com",
    "area":"ghansoli",
    "city":"Mumbai",
    "pincode":400701,
    "latitude":19.124913,
    "longitude":72.996395
  },
  {
    "name":"shabana firoz khan",
    "mobile":9664109769,
    "email":"firozshabana94@gmail.com",
    "area":"mira road",
    "city":"Mumbai",
    "pincode":401107,
    "latitude":19.059932,
    "longitude":72.849866
  },
  {
    "name":"afeen moosa",
    "mobile":7039722168,
    "email":"afeenpinjari011@gmail.com",
    "area":"mumbra",
    "city":"Mumbai",
    "pincode":400612,
    "latitude":19.170236,
    "longitude":73.026839
  },
  {
    "name":"karishma aniket salunkhe",
    "mobile":9769447791,
    "email":"karishmapanse876@gmail.com",
    "area":"panvel",
    "city":"Mumbai",
    "pincode":400070,
    "latitude":19.009684,
    "longitude":19.009684
  },
  {
    "name":"Gowramma t",
    "mobile":6361036579,
    "email":"gowrianilraj@gmail.com",
    "area":"Bendiganahalli",
    "city":"Bangalore",
    "pincode":562129,
    "latitude":13.061722,
    "longitude":77.763716
  },
  {
    "name":"muskan rahim sayyed",
    "mobile":8999805942,
    "email":"muskanrahimsayyed@gmail.com",
    "area":"yerwada",
    "city":"Pune",
    "pincode":411006,
    "latitude":18.551733,
    "longitude":73.883469
  },
  {
    "name":"sunita prabhakar",
    "mobile":9591021603,
    "email":"sunitnikam739@gmail.com",
    "area":"whitefield",
    "city":"Bangalore",
    "pincode":560066,
    "latitude":12.967135,
    "longitude":77.761215
  },
  {
    "name":"manju sheetal",
    "mobile":6364255094,
    "email":"manjusheetal1989@gmail.com",
    "area":"kodigehaaalli",
    "city":"Bangalore",
    "pincode":560092,
    "latitude":13.061565,
    "longitude":77.574782
  },
  {
    "name":"ujjwala kothari",
    "mobile":7016550223,
    "email":"tanuparab89@gmail.com",
    "area":"taloja",
    "city":"Mumbai",
    "pincode":410208,
    "latitude":19.06992,
    "longitude":73.102027
  },
  {
    "name":"farheen banjara",
    "mobile":9974224454,
    "email":"farheenbanjara@gmail.com",
    "area":"vadodara city",
    "city":"Vadodara",
    "pincode":390012,
    "latitude":22.287339,
    "longitude":73.138989
  },
  {
    "name":"amina suleman",
    "mobile":702869416,
    "email":"aminapinjari7@gmail.com",
    "area":"vasai west",
    "city":"Mumbai",
    "pincode":401207,
    "latitude":19.353538,
    "longitude":72.816477
  },
  {
    "name":"Indu kokilagattu",
    "mobile":9392457831,
    "email":"induindrani@gmail.com",
    "area":"ananthapur",
    "city":"Bangalore",
    "pincode":515001,
    "latitude":14.687358,
    "longitude":77.589073
  },
  {
    "name":"shivani solanki",
    "mobile":8369672937,
    "email":"shivangisolanki986@gmail.com",
    "area":"metro thathera",
    "city":"Mumbai",
    "pincode":null,
    "latitude":18.943882,
    "longitude":72.832372
  },
  {
    "name":"shivani solanki",
    "mobile":8369672937,
    "email":"shivangisolanki986@gmail.com",
    "area":"dombivali",
    "city":"Mumbai",
    "pincode":421201,
    "latitude":18.943882,
    "longitude":72.832372
  },
  {
    "name":"Aarti das",
    "mobile":8839304959,
    "email":"rtikadas123@gmail.com",
    "area":"goregaon",
    "city":"Mumbai",
    "pincode":400104,
    "latitude":19.14915,
    "longitude":72.848842
  },
  {
    "name":"sayyed zehra",
    "mobile":8652611058,
    "email":"sayyeddzra237@gmail.com",
    "area":"mankhud",
    "city":"Mumbai",
    "pincode":400043,
    "latitude":19.05419,
    "longitude":72.921423
  },
  {
    "name":"anita singh",
    "mobile":8904781921,
    "email":"singh11359@gmail.com",
    "area":"Sarjapur road",
    "city":"Bangalore",
    "pincode":560103,
    "latitude":12.922229,
    "longitude":77.663164
  },
  {
    "name":"jayshree aashis thorat",
    "mobile":7822845194,
    "email":"jt7022743@gmail.com",
    "area":"thane we",
    "city":"Mumbai",
    "pincode":421302,
    "latitude":19.235893,
    "longitude":73.010206
  },
  {
    "name":"archana kambie",
    "mobile":7207439139,
    "email":"archanakamblearchanakamble934@gmail.com",
    "area":"Secunderabad",
    "city":"Hyderabad",
    "pincode":500026,
    "latitude":17.367281,
    "longitude":78.446135
  },
  {
    "name":"diana feancis shetty",
    "mobile":9769812511,
    "email":"chettydiana796@gmail.com",
    "area":"malad west",
    "city":"Mumbai",
    "pincode":400064,
    "latitude":19.197432,
    "longitude":72.835986
  },
  {
    "name":"hetal manishkumar patel",
    "mobile":9426460792,
    "email":"hetal1682@gmail.com",
    "area":"sabarmati",
    "city":"Ahmedabad",
    "pincode":380019,
    "latitude":23.10327,
    "longitude":72.571762
  },
  {
    "name":"sana khan",
    "mobile":9720853965,
    "email":"rehanzehenkhan@gmail.com",
    "area":"bombai",
    "city":"Mumbai",
    "pincode":400612,
    "latitude":19.186574,
    "longitude":73.024183
  },
  {
    "name":"amina suleman",
    "mobile":7028696416,
    "email":"aminapinjari7@gmail.com",
    "area":"papdi vasai west",
    "city":"Mumbai",
    "pincode":401207,
    "latitude":19.353538,
    "longitude":72.816477
  },
  {
    "name":"sarita yadav",
    "mobile":8779329009,
    "email":"yadavsritakauhal@gmial.com",
    "area":"jogeeshwari west",
    "city":"Mumbai",
    "pincode":400102,
    "latitude":19.135245,
    "longitude":72.842427
  },
  {
    "name":"pathare wadala east",
    "mobile":8850144730,
    "email":"surekhapathare19@gmail.com",
    "area":"wadala east",
    "city":"Mumbai",
    "pincode":400037,
    "latitude":19.017183,
    "longitude":72.865981
  },
  {
    "name":"preeti borivali",
    "mobile":9867723942,
    "email":"preetigaud24@gmail.com",
    "area":"shivaji nagar borivali",
    "city":"Mumbai",
    "pincode":103,
    "latitude":19.212029,
    "longitude":72.837379
  },
  {
    "name":"shivani k s",
    "mobile":6302811914,
    "email":"shivani04.mua@gmail.com",
    "area":"srinivasnagar",
    "city":"Bangalore",
    "pincode":560050,
    "latitude":12.93977213,
    "longitude":77.55503711
  },
  {
    "name":"dhanshreeshelar",
    "mobile":8689979825,
    "email":"shelarrdhanshri107@gmail.com",
    "area":"andheri west",
    "city":"Mumbai",
    "pincode":400058,
    "latitude":19.12083764,
    "longitude":72.84019008
  },
  {
    "name":"hemlata waghela",
    "mobile":8108303882,
    "email":"ralparmar042@gmail.com",
    "area":"dahisar",
    "city":"Mumbai",
    "pincode":400067,
    "latitude":19.251062,
    "longitude":72.864467
  },
  {
    "name":"shweta singh",
    "mobile":9643334060,
    "email":"shwetttasinghswtta4060@gmail.com",
    "area":"malad west",
    "city":"Mumbai",
    "pincode":400064,
    "latitude":19.198084,
    "longitude":72.836815
  },
  {
    "name":"charu pramod",
    "mobile":9137378354,
    "email":"divyacchitte03@gmail.com",
    "area":"ghansoli gaov",
    "city":"Mumbai",
    "pincode":400701,
    "latitude":19.124436,
    "longitude":73.000094
  },
  {
    "name":"lilly",
    "mobile":7338327375,
    "email":"Lillysuresh9972@gmail.com",
    "area":"kadugodi",
    "city":"Bangalore",
    "pincode":560067,
    "latitude":13.001669,
    "longitude":77.746029
  },
  {
    "name":"yogita dinesh arekar",
    "mobile":8652432422,
    "email":"divyaarekar8@gmail .com",
    "area":"bandra east",
    "city":"Mumbai",
    "pincode":4000551,
    "latitude":19.069531,
    "longitude":72.847464
  },
  {
    "name":"afrrn",
    "mobile":8217024424,
    "email":"banuafreen107@gmail.com",
    "area":"nagwara",
    "city":"Bangalore",
    "pincode":560045,
    "latitude":13.035614,
    "longitude":77.621074
  },
  {
    "name":"Aarti gupta",
    "mobile":8369568843,
    "email":"aatiguptagupta513@gmail .com",
    "area":"khar west",
    "city":"Mumbai",
    "pincode":400052,
    "latitude":19.078681,
    "longitude":72.823714
  },
  {
    "name":"latha c",
    "mobile":9611061099,
    "email":"latharag2@gmail.com",
    "area":"lttumadu",
    "city":"Bangalore",
    "pincode":560085,
    "latitude":12.91542,
    "longitude":77.548997
  },
  {
    "name":"priyanka shah",
    "mobile":9324226510,
    "email":"shahp4394@gmil.com",
    "area":"vasai ",
    "city":"Mumbai",
    "pincode":401203,
    "latitude":19.373145,
    "longitude":19.373145
  },
  {
    "name":"shaheen",
    "mobile":7738197537,
    "email":"shahinkasar589@gmail.com",
    "area":"nalasupara",
    "city":"Mumbai",
    "pincode":400063,
    "latitude":19.174301,
    "longitude":72.854924
  },
  {
    "name":"swapnali phatak",
    "mobile":9619581414,
    "email":"swapanli.phatak@gmail.com",
    "area":"borivali",
    "city":"Mumbai",
    "pincode":400066,
    "latitude":19.22474,
    "longitude":72.868671
  },
  {
    "name":"u meghna",
    "mobile":7097792286,
    "email":"meghanamudhiraj69@gmail.com",
    "area":"bhoigududa",
    "city":"Hyderabad",
    "pincode":500003,
    "latitude":17.426081,
    "longitude":78.499174
  },
  {
    "name":"nikshita kaushik",
    "mobile":7977928745,
    "email":"nikskhita111@gmail.com",
    "area":"borivali east",
    "city":"Mumbai",
    "pincode":400066,
    "latitude":19.225593,
    "longitude":72.866356
  },
  {
    "name":"manjula n",
    "mobile":7022796986,
    "email":"manjulamanjula5141@gmil.com",
    "area":"parvathi nager",
    "city":"Bangalore",
    "pincode":560049,
    "latitude":13.030112,
    "longitude":77.715883
  },
  {
    "name":"URVASHI SHARMA",
    "mobile":8369514578,
    "email":"us1634341@gmail .com",
    "area":"kandivali",
    "city":"Mumbai",
    "pincode":400067,
    "latitude":19.21712,
    "longitude":72.826171
  },
  {
    "name":"qureshi roofi",
    "mobile":7045547511,
    "email":"qureshiroofi24@gmail.com ",
    "area":"heans road",
    "city":"Mumbai",
    "pincode":400011,
    "latitude":18.976108,
    "longitude":72.829693
  },
  {
    "name":"heena khan",
    "mobile":7078724447,
    "email":"hk8751626@gmail",
    "area":"razk palya",
    "city":"Bangalore",
    "pincode":562149,
    "latitude":13.145132,
    "longitude":77.660073
  },
  {
    "name":"kashmiri pradeep ghulle",
    "mobile":7039835519,
    "email":"shmirighule973@gmail.com",
    "area":"kalyan",
    "city":"Mumbai",
    "pincode":421301,
    "latitude":19.262588,
    "longitude":19.262588
  },
  {
    "name":"rakhi deepak mahajan",
    "mobile":7248975979,
    "email":"rakhisolanki2728@gmail.com",
    "area":"ambernath",
    "city":"Mumbai",
    "pincode":421501,
    "latitude":19.212164,
    "longitude":73.200213
  },
  {
    "name":"Rohini Rohit ghatpande",
    "mobile":9075227979,
    "email":"roshanishinde89@gmail.com",
    "area":"kothrud",
    "city":"Pune",
    "pincode":411038,
    "latitude":18.504288,
    "longitude":73.806365
  },
  {
    "name":"ruijumani das ,massj wali",
    "mobile":8638605608,
    "email":"rijumani591das@gmail.com",
    "area":"electronic city",
    "city":"Bangalore",
    "pincode":560100,
    "latitude":12.870977,
    "longitude":77.65626
  },
  {
    "name":"anjali yash gajjar",
    "mobile":8758613580,
    "email":"anjlikanojiya260@gmail.com",
    "area":"ghodasr",
    "city":"Ahmedabad",
    "pincode":380050,
    "latitude":22.966109,
    "longitude":72.616278
  },
  {
    "name":"shahin wasim",
    "mobile":7738197537,
    "email":"shahinkasar589@gmail.com",
    "area":"goregaon east",
    "city":"Mumbai",
    "pincode":400063,
    "latitude":19.174301,
    "longitude":72.854924
  },
  {
    "name":"sathalli lavanya",
    "mobile":9989888374,
    "email":"latharag2@gmail.com",
    "area":"chikkadpally",
    "city":"Hyderabad",
    "pincode":500020,
    "latitude":17.403032,
    "longitude":78.494149
  },
  {
    "name":"malti rajesh",
    "mobile":8850889871,
    "email":"maltisutar013@gmail.com",
    "area":"bail bazar",
    "city":"Mumbai",
    "pincode":400070,
    "latitude":19.085167,
    "longitude":19.085167
  },
  {
    "name":"yelagandhale divya",
    "mobile":9908891090,
    "email":"g.divya0009@gmail.com",
    "area":"kothapet",
    "city":"Hyderabad",
    "pincode":500035,
    "latitude":17.378153,
    "longitude":78.550047
  },
  {
    "name":"Laila ",
    "mobile":9904471428,
    "email":"merchanlaila@gmail.com",
    "area":"Doddanekkundi",
    "city":"Ahmedabad",
    "pincode":380022,
    "latitude":12.97276,
    "longitude":77.692962
  },
  {
    "name":"pournima poddar",
    "mobile":7030529602,
    "email":"pournimapoddar616@gmail.com",
    "area":"pashan pune",
    "city":"Pune",
    "pincode":411021,
    "latitude":18.538219,
    "longitude":73.795379
  },
  {
    "name":"asra anjum",
    "mobile":9182707199,
    "email":"asraanjum144@gmail.com",
    "area":"mehdipatnam",
    "city":"Hyderabad",
    "pincode":500028,
    "latitude":17.394245,
    "longitude":78.441036
  },
  {
    "name":"sangeeta motilal santoshi",
    "mobile":8898713504,
    "email":"sangeetasantoshio1@gmail.com",
    "area":"naderi east",
    "city":"Mumbai",
    "pincode":400093,
    "latitude":19.126511614,
    "longitude":72.8589966147
  },
  {
    "name":"yasmin mohmedirfan",
    "mobile":9601605648,
    "email":"yasminamansuri902@gmail.com",
    "area":"sonal road vejalpur",
    "city":"Ahmedabad",
    "pincode":380051,
    "latitude":22.99551,
    "longitude":72.518363
  },
  {
    "name":"sandhya anil rathi mob",
    "mobile":721964249,
    "email":"sandhyarathi2717@gmail.com",
    "area":"ulhanagar",
    "city":"Mumbai",
    "pincode":"421oo1",
    "latitude":19.241132,
    "longitude":73.160415
  },
  {
    "name":"parmar juhi dipak kumar",
    "mobile":9974299768,
    "email":"juhiparmar249@gmail.com",
    "area":"naroda",
    "city":"Ahmedabad",
    "pincode":382330,
    "latitude":23.078994,
    "longitude":72.67529
  },
  {
    "name":"sona patil",
    "mobile":8779293846,
    "email":"sonapatill1143@gmail.com",
    "area":"bhayandar",
    "city":"Mumbai",
    "pincode":401101,
    "latitude":72.67529,
    "longitude":72.826772
  },
  {
    "name":"radha tukaram jadhav",
    "mobile":7666176698,
    "email":"radhaadhav383@gmail.com",
    "area":"chavan nagan",
    "city":"Pune",
    "pincode":411043,
    "latitude":18.473033,
    "longitude":73.854343
  },
  {
    "name":"jaiswal priyanka anil kumar",
    "mobile":7046727623,
    "email":"myselfpriyankajiswal105@gmail",
    "area":"motera",
    "city":"Ahmedabad",
    "pincode":380005,
    "latitude":23.10409,
    "longitude":72.614428
  },
  {
    "name":"sona patil",
    "mobile":8779293846,
    "email":"sonapatil1143@gmail.com",
    "area":"bhayandar",
    "city":"Mumbai",
    "pincode":401101,
    "latitude":19.298789,
    "longitude":72.826772
  },
  {
    "name":"nusrath begum",
    "mobile":8143899851,
    "email":"nusrathzoyafathima7867@gmail",
    "area":"begumpet",
    "city":"Hyderabad",
    "pincode":500016,
    "latitude":17.440865,
    "longitude":78.473652
  },
  {
    "name":"kanojiya samina sanjay kumar",
    "mobile":9067512917,
    "email":"chauhansamina1@gmail.com",
    "area":"p.d pandya college",
    "city":"Ahmedabad",
    "pincode":380050,
    "latitude":22.9685912634,
    "longitude":72.6156508613
  },
  {
    "name":"hechin haokip",
    "mobile":9880485683,
    "email":"hechinhaokip77@gmail.com",
    "area":"anjinappa",
    "city":"Bangalore",
    "pincode":560078,
    "latitude":13.065156,
    "longitude":77.647106
  },
  {
    "name":"suman kumari",
    "mobile":7837985590,
    "email":"suman.gupta1743@gmail.com",
    "area":"mani nagar",
    "city":"Ahmedabad",
    "pincode":382405,
    "latitude":22.956261,
    "longitude":72.592694
  },
  {
    "name":"manisha dhrve",
    "mobile":8309007684,
    "email":"manishadhrve830@gmail.com",
    "area":"sai durga nagar",
    "city":"Hyderabad",
    "pincode":500001,
    "latitude":17.416299,
    "longitude":78.449432
  },
  {
    "name":"seema shaikh",
    "mobile":9978611586,
    "email":"sarukshaik9171@gmail.com",
    "area":"shah e alam",
    "city":"Ahmedabad",
    "pincode":380028,
    "latitude":22.994131,
    "longitude":72.587475
  },
  {
    "name":"pooja parasam bajantri",
    "mobile":9870574047,
    "email":"poojasweetkadam@gmail.com",
    "area":" ambernath east",
    "city":"Mumbai",
    "pincode":421501,
    "latitude":19.190034,
    "longitude":19.190034
  },
  {
    "name":"asha jeevan jadhav",
    "mobile":7304339143,
    "email":"ashajadhav18@gmail.com",
    "area":"navi mumbai",
    "city":"Mumbai",
    "pincode":400703,
    "latitude":19.074862,
    "longitude":19.074862
  },
  {
    "name":"dipti shubham bhatt",
    "mobile":6351681569,
    "email":"pti265@gmail.com",
    "area":"hathijan",
    "city":"Ahmedabad",
    "pincode":382445,
    "latitude":22.955512,
    "longitude":72.658517
  },
  {
    "name":"kangna A chavla",
    "mobile":7878013761,
    "email":"kangnachawla22@gmail.com",
    "area":"naroda",
    "city":"Ahmedabad",
    "pincode":null,
    "latitude":23.085952,
    "longitude":72.652678
  },
  {
    "name":"Nehal thakor",
    "mobile":8160836227,
    "email":"thakornehal033@gmail.com",
    "area":"vejalpur",
    "city":"Ahmedabad",
    "pincode":380051,
    "latitude":23.0037851929,
    "longitude":72.5237518077
  },
  {
    "name":" naziya shaikh",
    "mobile":9987281271,
    "email":"nazzk469@gmail.com",
    "area":"thane",
    "city":"Mumbai",
    "pincode":4000606,
    "latitude":19.09403,
    "longitude":72.880937
  },
  {
    "name":"pooja parse",
    "mobile":9130746753,
    "email":"poojaparase8654@gmail.com",
    "area":"pimple",
    "city":"Pune",
    "pincode":411017,
    "latitude":19.09403,
    "longitude":72.880937
  },
  {
    "name":"khushbu barot",
    "mobile":9662743108,
    "email":"barotkhushi2311@gmail.com",
    "area":"hirawadi ",
    "city":"Ahmedabad",
    "pincode":382350,
    "latitude":23.046341,
    "longitude":72.638895
  },
  {
    "name":"ummakodu jyothi",
    "mobile":8897969086,
    "email":"shekarjyothi616@gmail.com",
    "area":"ramanthapur",
    "city":"Hyderabad",
    "pincode":500013,
    "latitude":16.682739,
    "longitude":74.23795
  },
  {
    "name":"sunita sachin more",
    "mobile":7506127847,
    "email":"sunitasmore1227@gmail.com",
    "area":"colaba",
    "city":"Mumbai",
    "pincode":400005,
    "latitude":18.914075,
    "longitude":72.830378
  },
  {
    "name":"summaya tabassum",
    "mobile":9014631370,
    "email":"tabbutabsumm09@gmail.com",
    "area":"vijaynagar colony",
    "city":"Hyderabad",
    "pincode":500058,
    "latitude":17.392028,
    "longitude":78.453532
  },
  {
    "name":"sujata",
    "mobile":9620409878,
    "email":"sujathasuju348@GMAIL.COM",
    "area":"kaval byrasandra",
    "city":"Bangalore",
    "pincode":560045,
    "latitude":13.018347,
    "longitude":77.606626
  },
  {
    "name":"indumathi ",
    "mobile":9398654221,
    "email":"sabaindumathi@gmail.com",
    "area":"nizampet",
    "city":"Hyderabad",
    "pincode":500090,
    "latitude":17.525144,
    "longitude":78.369882
  },
  {
    "name":"nausheen fatima",
    "mobile":9618284341,
    "email":"nausheen fathima@gmail.com",
    "area":"mahaveer colony",
    "city":"Hyderabad",
    "pincode":500028,
    "latitude":17.382346,
    "longitude":78.443228
  },
  {
    "name":"jasmin shikh",
    "mobile":9737888805,
    "email":"jasminshaikh1929@gmail.com",
    "area":"danilimda",
    "city":"Ahmedabad",
    "pincode":380028,
    "latitude":22.992279,
    "longitude":72.579169
  },
  {
    "name":"farhana begum",
    "mobile":9182185903,
    "email":"farhafatima@gmail.com",
    "area":"srinivas nagar",
    "city":"Bangalore",
    "pincode":500054,
    "latitude":17.511018,
    "longitude":78.427321
  },
  {
    "name":"Reshma imrran khan",
    "mobile":8010535563,
    "email":"reshmakhan9084@gmail.com",
    "area":"wadgaon sheri",
    "city":"Pune",
    "pincode":411014,
    "latitude":18.555667,
    "longitude":73.923953
  },
  {
    "name":"ekta dev trivedi",
    "mobile":9712932302,
    "email":"ektativedi217@gmail.com",
    "area":"makarba",
    "city":"Ahmedabad",
    "pincode":380051,
    "latitude":23.002348,
    "longitude":72.511975
  },
  {
    "name":"Anitha.k",
    "mobile":7259325194,
    "email":"anithavijayanitha121@gmail.com ",
    "area":"Bommanahalli",
    "city":"Bangalore",
    "pincode":560076,
    "latitude":12.89488,
    "longitude":77.61534
  },
  {
    "name":"Farha wasid ansari",
    "mobile":9833699761,
    "email":" farahansari048@gmail.com ",
    "area":"Mankhurd",
    "city":"Mumbai",
    "pincode":400088,
    "latitude":19.041958,
    "longitude":72.946776
  },
  {
    "name":"Nehal Thakor",
    "mobile":8160836227,
    "email":"thakornehal033@gmail.com ",
    "area":"Vejalpur ",
    "city":"Ahmedabad",
    "pincode":380051,
    "latitude":23.0037555659,
    "longitude":72.52373035
  },
  {
    "name":"Hechin haokip",
    "mobile":9863451992,
    "email":"hechinhaokip77@gmail.com",
    "area":"Narayanapura",
    "city":"Bangalore",
    "pincode":560077,
    "latitude":13.0653039921,
    "longitude":77.6471901865
  },
  {
    "name":"Gentelli Manasa ",
    "mobile":9705844457,
    "email":" gentellimanasa@gmail.com",
    "area":"Secunderabad",
    "city":"Hyderabad",
    "pincode":500083,
    "latitude":17.507754,
    "longitude":78.591527
  },
  {
    "name":"Akula ashwini",
    "mobile":9908733720,
    "email":"www.akulaashwini@35.com",
    "area":"hythnagar",
    "city":"Hyderabad",
    "pincode":501511,
    "latitude":17.287861,
    "longitude":78.608908
  },
  {
    "name":"saira bnao chaudhary",
    "mobile":7021723163,
    "email":"sairachoudary2009@ggmail.com",
    "area":"kurla kamani",
    "city":"Mumbai",
    "pincode":400072,
    "latitude":19.088107,
    "longitude":19.088107
  },
  {
    "name":"kajal pune",
    "mobile":9545685617,
    "email":"kajaljadhav210596@gmail.com",
    "area":"gangapur road",
    "city":"Pune",
    "pincode":422005,
    "latitude":19.964995,
    "longitude":73.765647
  },
  {
    "name":"alisha javed shaikh",
    "mobile":7058184701,
    "email":"alishashaikhinaya@gmail.com",
    "area":"kondhwa shivneri",
    "city":"Pune",
    "pincode":411048,
    "latitude":18.474249,
    "longitude":73.880858
  },
  {
    "name":"neha sone",
    "mobile":9828303849,
    "email":"neharsoni20@gmail.com",
    "area":"santacruz east",
    "city":"Mumbai",
    "pincode":400046,
    "latitude":19.088849,
    "longitude":72.835521
  },
  {
    "name":"saira bano chaoudhary",
    "mobile":7021723163,
    "email":"sairachoudhary2009@gmail.com",
    "area":"kamani kajupada",
    "city":"Mumbai",
    "pincode":400072,
    "latitude":19.088107,
    "longitude":72.882721
  },
  {
    "name":"krupa patel",
    "mobile":8140969894,
    "email":"patelkrupa818@gmail.com",
    "area":"nikol",
    "city":"Ahmedabad",
    "pincode":382345,
    "latitude":23.05736,
    "longitude":72.67355
  },
  {
    "name":"Aparna datta rupwate",
    "mobile":9819325236,
    "email":null,
    "area":"chembur",
    "city":"mumbai ",
    "pincode":400089,
    "latitude":19.066231,
    "longitude":72.898187
  },
  {
    "name":"rangrej Aafarin",
    "mobile":9737306150,
    "email":"rangrejaafrin77@gmail.com",
    "area":"vejalpur.",
    "city":"ahmedabbad",
    "pincode":380051,
    "latitude":22.998385,
    "longitude":72.535713
  },
  {
    "name":"poonamsahani",
    "mobile":9321749168,
    "email":"sahanipoonam466@gmail.com",
    "area":"boriwali",
    "city":"mumbai",
    "pincode":400103,
    "latitude":19.240605,
    "longitude":72.842853
  },
  {
    "name":"mohini akhade",
    "mobile":8850438507,
    "email":"mohiniakhade@gmail.com",
    "area":"kharghar",
    "city":"mumbai",
    "pincode":410210,
    "latitude":19.040765,
    "longitude":73.065645
  },
  {
    "name":"Akansha shubham wadkar ",
    "mobile":7499961002,
    "email":"akankshawadkar@26gmail.com",
    "area":"khed shivapur",
    "city":"pune",
    "pincode":412205,
    "latitude":18.358517,
    "longitude":73.863041
  },
  {
    "name":"mital manvar",
    "mobile":9924621942,
    "email":"vesami26@gmail.com",
    "area":"pelican height",
    "city":"ahmedabaad",
    "pincode":380060,
    "latitude":23.086412,
    "longitude":72.486834
  },
  {
    "name":"gulnaaz",
    "mobile":9550119843,
    "email":"Naazgul218@gmail.com",
    "area":"kareem kemp",
    "city":"Hyderabad",
    "pincode":50003,
    "latitude":17.436873,
    "longitude":78.485069
  },
  {
    "name":"shanmugapriya karthik",
    "mobile":8660994880,
    "email":"priyapragateesh999@gmail.com",
    "area":"rajinagar nager",
    "city":"Bangalore",
    "pincode":600021,
    "latitude":13.009288,
    "longitude":77.559726
  },
  {
    "name":"roopa m",
    "mobile":9972108092,
    "email":"roopamagi46@gmail.com",
    "area":" layout vijaynagar",
    "city":"Bangalore",
    "pincode":560079,
    "latitude":12.98053,
    "longitude":77.532471
  },
  {
    "name":"sudha",
    "mobile":7795503332,
    "email":"isudha1984@gmail.com",
    "area":"koramangala",
    "city":"Bangalore",
    "pincode":560095,
    "latitude":12.940545,
    "longitude":77.615352
  },
  {
    "name":"chaithanya",
    "mobile":9741546774,
    "email":"chaithanyajohnbcv@gmail.com",
    "area":"abbigere",
    "city":"Bangalore",
    "pincode":560090,
    "latitude":13.079037,
    "longitude":77.526803
  },
  {
    "name":"Aarti ghodke",
    "mobile":9022021505,
    "email":"aratighodke9@gmail.com",
    "area":"hadapsar",
    "city":"pune",
    "pincode":4122,
    "latitude":18.466572,
    "longitude":73.940288
  },
  {
    "name":"kajal sandip jadhav",
    "mobile":9545685617,
    "email":"kajaljadhav210596@gmail.com",
    "area":"gangapur road",
    "city":"Pune",
    "pincode":422005,
    "latitude":19.964995,
    "longitude":73.765647
  },
  {
    "name":"pooja tulsiram verma",
    "mobile":7745881600,
    "email":"pooja1277verma@gmail.com",
    "area":"dehuroad",
    "city":"pune",
    "pincode":412101,
    "latitude":18.679146,
    "longitude":73.720909
  },
  {
    "name":"archana vyavhare",
    "mobile":8355912150,
    "email":"arcu@com93gmail.com",
    "area":"hingne",
    "city":"pune",
    "pincode":400115,
    "latitude":18.479794,
    "longitude":73.828818
  },
  {
    "name":"menga",
    "mobile":832849427,
    "email":"siri@gmail.com",
    "area":"chrminar",
    "city":"Hyderabad",
    "pincode":5000053,
    "latitude":17.348458,
    "longitude":78.478498
  },
  {
    "name":"rubina khan",
    "mobile":7558685905,
    "email":"rubinaazizkhan7777@gmail.com",
    "area":"kondwa khurd",
    "city":"pune",
    "pincode":411048,
    "latitude":18.463885,
    "longitude":73.880243
  },
  {
    "name":"menga sirishs",
    "mobile":8328349427,
    "email":"siri@gmail.com",
    "area":"charminar",
    "city":"Hyderabad",
    "pincode":500053,
    "latitude":17.348458,
    "longitude":78.478498
  },
  {
    "name":"munuswmi Ashwini ",
    "mobile":9346831808,
    "email":"ashwinir719@gmail.com",
    "area":"Ashok nagar",
    "city":"Hyderabad",
    "pincode":502032,
    "latitude":17.522248,
    "longitude":78.311694
  },
  {
    "name":"kavya k",
    "mobile":812310052,
    "email":"kavyanidhi2017@gmail.com",
    "area":"k.r puram",
    "city":"Bangalore",
    "pincode":560049,
    "latitude":13.042102,
    "longitude":77.712214
  },
  {
    "name":"thalapathi sneha latha",
    "mobile":7815808259,
    "email":"thalapatis@gmail.com",
    "area":"chowdrigudaguda",
    "city":"Hyderabad",
    "pincode":500088,
    "latitude":17.415724,
    "longitude":78.646329
  },
  {
    "name":"jigisha bharat bhai more",
    "mobile":9978398580,
    "email":"jigishamore23@gmail.com",
    "area":"vasna",
    "city":"ahmedabad",
    "pincode":380007,
    "latitude":23.000125,
    "longitude":72.541635
  },
  {
    "name":"faezah begum",
    "mobile":8374592589,
    "email":"Amenamasqati31@gmail.com",
    "area":"santosh nagar",
    "city":"Hyderabad",
    "pincode":500059,
    "latitude":17.349279,
    "longitude":78.506734
  },
  {
    "name":"debora jenies",
    "mobile":6239894930,
    "email":"sanjeevidebora83@gmail.com",
    "area":"banglore",
    "city":"Bangalore",
    "pincode":560037,
    "latitude":12.965743,
    "longitude":77.676467
  },
  {
    "name":"diya chetanbhai naye",
    "mobile":8732959656,
    "email":"diyanayi128@gmail.com",
    "area":"gota howshing",
    "city":"Ahmedabad",
    "pincode":380060,
    "latitude":23.10807,
    "longitude":72.532097
  },
  {
    "name":"ritu",
    "mobile":9781804555,
    "email":"ritu bassi07@gmail.com",
    "area":"nagole",
    "city":"Hyderabad",
    "pincode":500035,
    "latitude":17.370939,
    "longitude":78.554903
  },
  {
    "name":"mayuri anand dalavi",
    "mobile":9665943104,
    "email":"mayuridalvi430@gmail.com",
    "area":"kalewadi",
    "city":"pune",
    "pincode":411017,
    "latitude":18.614102,
    "longitude":73.787128
  },
  {
    "name":"mussarat jahan",
    "mobile":9327689584,
    "email":"mussarratjahan87@gmail.com",
    "area":"Juhapura",
    "city":"Amedabad",
    "pincode":380055,
    "latitude":22.999709,
    "longitude":72.530801
  },
  {
    "name":"mansi mahipal wastar",
    "mobile":9222176198,
    "email":"wastarmansi@gmail.com",
    "area":"marol",
    "city":"mumbai",
    "pincode":400059,
    "latitude":19.106665,
    "longitude":72.876276
  },
  {
    "name":"madhu yamini",
    "mobile":7330523193,
    "email":"madhuyamini0@gmail.com",
    "area":"kachiguda",
    "city":"Hyderabad",
    "pincode":500026,
    "latitude":17.458377,
    "longitude":78.503411
  },
  {
    "name":"neelu",
    "mobile":9886561886,
    "email":"neelu@gmail.com",
    "area":" rt nagar",
    "city":"Bangalore",
    "pincode":560032,
    "latitude":13.025842,
    "longitude":13.025842
  },
  {
    "name":"hetal dave ganeshkumar",
    "mobile":9870038657,
    "email":"Hetaldavez111@gmail.com",
    "area":"naryanpura",
    "city":"Aehmedabad",
    "pincode":380063,
    "latitude":23.057816,
    "longitude":72.540833
  },
  {
    "name":"vaishnavi chavan",
    "mobile":7219800918,
    "email":"vaishnavic312@gmail.com",
    "area":"laxmi nagar ",
    "city":"pune",
    "pincode":411006,
    "latitude":18.54841,
    "longitude":73.881784
  },
  {
    "name":"Asra Anjum",
    "mobile":9182707199,
    "email":"Asraanum144@gmail.com",
    "area":"mehdipatnam",
    "city":"hyderabad",
    "pincode":500028,
    "latitude":17.394245,
    "longitude":17.394245
  },
  {
    "name":"vaishnavi ",
    "mobile":9353288501,
    "email":"vaishnavi sachin1991@gmail.com",
    "area":"guttali",
    "city":"Bangalore",
    "pincode":560003,
    "latitude":12.999329,
    "longitude":77.580216
  },
  {
    "name":"Alisha bhagat",
    "mobile":9309760831,
    "email":"alishakarpr26@gmail.com",
    "area":"navle bridge ",
    "city":"pune",
    "pincode":411041,
    "latitude":18.46167,
    "longitude":73.82119
  },
  {
    "name":"Daksha Ganatra[she will , bridal ]",
    "mobile":7981950654,
    "email":"dakshaaganatradaksha35683@gmail.com",
    "area":"Secunderabad",
    "city":"Hyderabad",
    "pincode":500100,
    "latitude":17.565128,
    "longitude":78.478749
  },
  {
    "name":"rupali koli",
    "mobile":7620443026,
    "email":"alisomukoli81@gmail.com",
    "area":"madhapur",
    "city":"Hyderabad",
    "pincode":500018,
    "latitude":17.458989,
    "longitude":78.400284
  }
]
